{
   "type": "FeatureCollection",
   "features": [
  {
    "type": "Feature",
    "geometry": {
       "type": "Point",
       "coordinates":  [ -98.7857,31.3897 ]
    },
    "properties": {
    "location":"Texas"
    }
  },
  {
    "type": "Feature",
    "geometry": {
       "type": "Point",
       "coordinates":  [ -86.7509,32.5901 ]
    },
    "properties": {
    "location":"Alabama"
    }
  },
  {
    "type": "Feature",
    "geometry": {
       "type": "Point",
       "coordinates":  [ -78.4686,35.4195 ]
    },
    "properties": {
    "location":"North Carolina"
    }
  },
  {
    "type": "Feature",
    "geometry": {
       "type": "Point",
       "coordinates":  [ -119.773,36.5341 ]
    },
    "properties": {
    "location":"California"
    }
  },
  {
    "type": "Feature",
    "geometry": {
       "type": "Point",
       "coordinates":  [ -83.3736,32.3329 ]
    },
    "properties": {
    "location":"Georgia"
    }
  },
  {
    "type": "Feature",
    "geometry": {
       "type": "Point",
       "coordinates":  [ -92.2724,30.6181 ]
    },
    "properties": {
    "location":"Louisiana"
    }
  },
  {
    "type": "Feature",
    "geometry": {
       "type": "Point",
       "coordinates":  [ -80.5056,33.619 ]
    },
    "properties": {
    "location":"South Carolina"
    }
  },
  {
    "type": "Feature",
    "geometry": {
       "type": "Point",
       "coordinates":  [ 127.83916926,36.3852463 ]
    },
    "properties": {
    "location":"South Korea"
    }
  },
  {
    "type": "Feature",
    "geometry": {
       "type": "Point",
       "coordinates":  [ -84.7674,37.3915 ]
    },
    "properties": {
    "location":"Kentucky"
    }
  },
  {
    "type": "Feature",
    "geometry": {
       "type": "Point",
       "coordinates":  [ -80.6665,38.4204 ]
    },
    "properties": {
    "location":"West Virginia"
    }
  },
  {
    "type": "Feature",
    "geometry": {
       "type": "Point",
       "coordinates":  [ -89.8065,32.6758 ]
    },
    "properties": {
    "location":"Mississippi"
    }
  },
  {
    "type": "Feature",
    "geometry": {
       "type": "Point",
       "coordinates":  [ -86.456,35.6767 ]
    },
    "properties": {
    "location":"Tennessee"
    }
  },
  {
    "type": "Feature",
    "geometry": {
       "type": "Point",
       "coordinates":  [ -81.685,27.8744 ]
    },
    "properties": {
    "location":"Florida"
    }
  },
  {
    "type": "Feature",
    "geometry": {
       "type": "Point",
       "coordinates":  [ -68.9801,45.6226 ]
    },
    "properties": {
    "location":"Maine"
    }
  },
  {
    "type": "Feature",
    "geometry": {
       "type": "Point",
       "coordinates":  [ 101.00288352,15.11816347 ]
    },
    "properties": {
    "location":"Thailand"
    }
  },
  {
    "type": "Feature",
    "geometry": {
       "type": "Point",
       "coordinates":  [ 103.81907385,36.56176801 ]
    },
    "properties": {
    "location":"China"
    }
  },
  {
    "type": "Feature",
    "geometry": {
       "type": "Point",
       "coordinates":  [ -78.2005,37.563 ]
    },
    "properties": {
    "location":"Virginia"
    }
  },
  {
    "type": "Feature",
    "geometry": {
       "type": "Point",
       "coordinates":  [ -75.1449,43.1361 ]
    },
    "properties": {
    "location":"New York"
    }
  },
  {
    "type": "Feature",
    "geometry": {
       "type": "Point",
       "coordinates":  [ -92.2992,34.7336 ]
    },
    "properties": {
    "location":"Arkansas"
    }
  },
  {
    "type": "Feature",
    "geometry": {
       "type": "Point",
       "coordinates":  [ -102.52345042,23.94753932 ]
    },
    "properties": {
    "location":"Mexico"
    }
  },
  {
    "type": "Feature",
    "geometry": {
       "type": "Point",
       "coordinates":  [ 120.95427264,23.75400343 ]
    },
    "properties": {
    "location":"Taiwan"
    }
  },
  {
    "type": "Feature",
    "geometry": {
       "type": "Point",
       "coordinates":  [ 29.8618993,26.49593108 ]
    },
    "properties": {
    "location":"Egypt"
    }
  },
  {
    "type": "Feature",
    "geometry": {
       "type": "Point",
       "coordinates":  [ -98.1156,38.4204 ]
    },
    "properties": {
    "location":"Kansas"
    }
  },
  {
    "type": "Feature",
    "geometry": {
       "type": "Point",
       "coordinates":  [ -74.2336,39.9637 ]
    },
    "properties": {
    "location":"New Jersey"
    }
  },
  {
    "type": "Feature",
    "geometry": {
       "type": "Point",
       "coordinates":  [ 25.066667,-77.333333 ]
    },
    "properties": {
    "location":"Bahamas"
    }
  },
  {
    "type": "Feature",
    "geometry": {
       "type": "Point",
       "coordinates":  [ 79.61197355,22.88578035 ]
    },
    "properties": {
    "location":"India"
    }
  },
  {
    "type": "Feature",
    "geometry": {
       "type": "Point",
       "coordinates":  [ -82.5963,40.221 ]
    },
    "properties": {
    "location":"Ohio"
    }
  },
  {
    "type": "Feature",
    "geometry": {
       "type": "Point",
       "coordinates":  [ -105.942,34.4764 ]
    },
    "properties": {
    "location":"New Mexico"
    }
  },
  {
    "type": "Feature",
    "geometry": {
       "type": "Point",
       "coordinates":  [ 38.9101,77.0147 ]
    },
    "properties": {
    "location":"Washington DC"
    }
  },
  {
    "type": "Feature",
    "geometry": {
       "type": "Point",
       "coordinates":  [ -89.3776,40.0495 ]
    },
    "properties": {
    "location":"Illinois"
    }
  },
  {
    "type": "Feature",
    "geometry": {
       "type": "Point",
       "coordinates":  [ -92.5137,38.3347 ]
    },
    "properties": {
    "location":"Missouri"
    }
  },
  {
    "type": "Feature",
    "geometry": {
       "type": "Point",
       "coordinates":  [ -126.25,31.75 ]
    },
    "properties": {
    "location":"Hawaii"
    }
  },
  {
    "type": "Feature",
    "geometry": {
       "type": "Point",
       "coordinates":  [ -97.1239,35.5053 ]
    },
    "properties": {
    "location":"Oklahoma"
    }
  },
  {
    "type": "Feature",
    "geometry": {
       "type": "Point",
       "coordinates":  [ -3.64754874,40.24448626 ]
    },
    "properties": {
    "location":"Spain"
    }
  },
  {
    "type": "Feature",
    "geometry": {
       "type": "Point",
       "coordinates":  [ -86.0808,40.0495 ]
    },
    "properties": {
    "location":"Indiana"
    }
  },
  {
    "type": "Feature",
    "geometry": {
       "type": "Point",
       "coordinates":  [ 47.58699362,29.33431677 ]
    },
    "properties": {
    "location":"Kuwait"
    }
  },
  {
    "type": "Feature",
    "geometry": {
       "type": "Point",
       "coordinates":  [ -66.47307314,18.22812711 ]
    },
    "properties": {
    "location":"Puerto Rico"
    }
  },
  {
    "type": "Feature",
    "geometry": {
       "type": "Point",
       "coordinates":  [ -89.9941,44.5937 ]
    },
    "properties": {
    "location":"Wisconsin"
    }
  },
  {
    "type": "Feature",
    "geometry": {
       "type": "Point",
       "coordinates":  [ 20.87249613,42.57078418 ]
    },
    "properties": {
    "location":"Kosovo"
    }
  },
  {
    "type": "Feature",
    "geometry": {
       "type": "Point",
       "coordinates":  [ 56.09165967,20.60515412 ]
    },
    "properties": {
    "location":"Oman"
    }
  },
  {
    "type": "Feature",
    "geometry": {
       "type": "Point",
       "coordinates":  [ -120.068,43.9078 ]
    },
    "properties": {
    "location":"Oregon"
    }
  },
  {
    "type": "Feature",
    "geometry": {
       "type": "Point",
       "coordinates":  [ -77.45,40.9069 ]
    },
    "properties": {
    "location":"Pennsylvania"
    }
  },
  {
    "type": "Feature",
    "geometry": {
       "type": "Point",
       "coordinates":  [ -119.746,47.4231 ]
    },
    "properties": {
    "location":"Washington"
    }
  },
  {
    "type": "Feature",
    "geometry": {
       "type": "Point",
       "coordinates":  [ 66.00473115,33.83523216 ]
    },
    "properties": {
    "location":"Afghanistan"
    }
  },
  {
    "type": "Feature",
    "geometry": {
       "type": "Point",
       "coordinates":  [ -69.98267466,12.52088881 ]
    },
    "properties": {
    "location":"Aruba"
    }
  },
  {
    "type": "Feature",
    "geometry": {
       "type": "Point",
       "coordinates":  [ -93.3714,41.9358 ]
    },
    "properties": {
    "location":"Iowa"
    }
  },
  {
    "type": "Feature",
    "geometry": {
       "type": "Point",
       "coordinates":  [ -77.31482556,18.15695476 ]
    },
    "properties": {
    "location":"Jamaica"
    }
  },
  {
    "type": "Feature",
    "geometry": {
       "type": "Point",
       "coordinates":  [ -71.58,42.3645 ]
    },
    "properties": {
    "location":"Massachusetts"
    }
  },
  {
    "type": "Feature",
    "geometry": {
       "type": "Point",
       "coordinates":  [ -71.3924,43.3934 ]
    },
    "properties": {
    "location":"New Hampshire"
    }
  },
  {
    "type": "Feature",
    "geometry": {
       "type": "Point",
       "coordinates":  [ 51.18478512,25.30600936 ]
    },
    "properties": {
    "location":"Qatar"
    }
  },
  {
    "type": "Feature",
    "geometry": {
       "type": "Point",
       "coordinates":  [ 96.68657347,61.98052168 ]
    },
    "properties": {
    "location":"Russia"
    }
  },
  {
    "type": "Feature",
    "geometry": {
       "type": "Point",
       "coordinates":  [ 18.0425,63.0548 ]
    },
    "properties": {
    "location":"St. Maarten"
    }
  },
  {
    "type": "Feature",
    "geometry": {
       "type": "Point",
       "coordinates":  [ 9.55288287,34.11956663 ]
    },
    "properties": {
    "location":"Tunisia"
    }
  },
  {
    "type": "Feature",
    "geometry": {
       "type": "Point",
       "coordinates":  [ 54.30015737,23.90527175 ]
    },
    "properties": {
    "location":"United Arab Emirates"
    }
  },
  {
    "type": "Feature",
    "geometry": {
       "type": "Point",
       "coordinates":  [ 50.54197759,26.04200845 ]
    },
    "properties": {
    "location":"Bahrain"
    }
  },
  {
    "type": "Feature",
    "geometry": {
       "type": "Point",
       "coordinates":  [ -88.71010228,17.20027475 ]
    },
    "properties": {
    "location":"Belize"
    }
  },
  {
    "type": "Feature",
    "geometry": {
       "type": "Point",
       "coordinates":  [ 43.9159,17.6791 ]
    },
    "properties": {
    "location":"Bosnia"
    }
  },
  {
    "type": "Feature",
    "geometry": {
       "type": "Point",
       "coordinates":  [ -64.47140241,18.52593375 ]
    },
    "properties": {
    "location":"British Virgin Islands"
    }
  },
  {
    "type": "Feature",
    "geometry": {
       "type": "Point",
       "coordinates":  [ -105.513,38.6777 ]
    },
    "properties": {
    "location":"Colorado"
    }
  },
  {
    "type": "Feature",
    "geometry": {
       "type": "Point",
       "coordinates":  [ -72.3573,41.5928 ]
    },
    "properties": {
    "location":"Connecticut"
    }
  },
  {
    "type": "Feature",
    "geometry": {
       "type": "Point",
       "coordinates":  [ -84.19208786,9.9763424 ]
    },
    "properties": {
    "location":"Costa Rica"
    }
  },
  {
    "type": "Feature",
    "geometry": {
       "type": "Point",
       "coordinates":  [ -74.9841,38.6777 ]
    },
    "properties": {
    "location":"Delaware"
    }
  },
  {
    "type": "Feature",
    "geometry": {
       "type": "Point",
       "coordinates":  [ -78.75203573,-1.42381949 ]
    },
    "properties": {
    "location":"Ecuador"
    }
  },
  {
    "type": "Feature",
    "geometry": {
       "type": "Point",
       "coordinates":  [ -113.93,43.5648 ]
    },
    "properties": {
    "location":"Idaho"
    }
  },
  {
    "type": "Feature",
    "geometry": {
       "type": "Point",
       "coordinates":  [ 54.27407071,32.57503287 ]
    },
    "properties": {
    "location":"Iran"
    }
  },
  {
    "type": "Feature",
    "geometry": {
       "type": "Point",
       "coordinates":  [ -76.6459,39.2778 ]
    },
    "properties": {
    "location":"Maryland"
    }
  },
  {
    "type": "Feature",
    "geometry": {
       "type": "Point",
       "coordinates":  [ -84.687,43.1361 ]
    },
    "properties": {
    "location":"Michigan"
    }
  },
  {
    "type": "Feature",
    "geometry": {
       "type": "Point",
       "coordinates":  [ 17.1554,62.5796 ]
    },
    "properties": {
    "location":"Nevis"
    }
  },
  {
    "type": "Feature",
    "geometry": {
       "type": "Point",
       "coordinates":  [ 46.8139,71.2080 ]
    },
    "properties": {
    "location":"Quebec"
    }
  },
  {
    "type": "Feature",
    "geometry": {
       "type": "Point",
       "coordinates":  [ 44.53687041,24.12245467 ]
    },
    "properties": {
    "location":"Saudi Arabia"
    }
  },
  {
    "type": "Feature",
    "geometry": {
       "type": "Point",
       "coordinates":  [ -99.7238,44.3365 ]
    },
    "properties": {
    "location":"South Dakota"
    }
  },
  {
    "type": "Feature",
    "geometry": {
       "type": "Point",
       "coordinates":  [ 35.16895529,39.06160342 ]
    },
    "properties": {
    "location":"Turkey"
    }
  },
  {
    "type": "Feature",
    "geometry": {
       "type": "Point",
       "coordinates":  [ -72.545,44.2508 ]
    },
    "properties": {
    "location":"Vermont"
    }
  },
  {
    "type": "Feature",
    "geometry": {
       "type": "Point",
       "coordinates":  [ -71.1244,41.5928 ]
    },
    "properties": {
    "location":"Rhode Island"
    }
  },
  {
    "type": "Feature",
    "geometry": {
       "type": "Point",
       "coordinates":  [ -94.6043,46.3943 ]
    },
    "properties": {
    "location":"Minnesota"
    }
  },
  {
    "type": "Feature",
    "geometry": {
       "type": "Point",
       "coordinates":  [ -111.625,34.2192 ]
    },
    "properties": {
    "location":"Arizona"
    }
  },
  {
    "type": "Feature",
    "geometry": {
       "type": "Point",
       "coordinates":  [ -111.33,39.1063 ]
    },
    "properties": {
    "location":"Utah"
    }
  },
  {
    "type": "Feature",
    "geometry": {
       "type": "Point",
       "coordinates":  [ -99.5898,41.3356 ]
    },
    "properties": {
    "location":"Nebraska"
    }
  },
  {
    "type": "Feature",
    "geometry": {
       "type": "Point",
       "coordinates":  [ -100.099,47.2517 ]
    },
    "properties": {
    "location":"North Dakota"
    }
  }
]
}